City_ID,City,Country,Lat,Lng,Max Temp,Humidity,Cloudiness,Wind Speed,Current Description
0,Mataura,NZ,-46.1927,168.8643,57.47,62,26,2.35,scattered clouds
1,Severo-Kurilsk,RU,50.6789,156.125,23.16,68,26,11.92,scattered clouds
2,Bathsheba,BB,13.2167,-59.5167,79.41,65,75,19.57,broken clouds
3,Souillac,MU,-20.5167,57.5167,81.36,89,75,11.5,broken clouds
4,Tombouctou,ML,20.0,-3.0,61.83,20,16,11.63,few clouds
5,Faanui,PF,-16.4833,-151.75,80.76,74,100,14.63,light rain
6,Hithadhoo,MV,-0.6,73.0833,82.22,72,83,11.03,broken clouds
7,Ushuaia,AR,-54.8,-68.3,38.86,87,100,27.63,moderate rain
8,Hermanus,ZA,-34.4187,19.2345,65.8,83,58,18.05,broken clouds
9,Dikson,RU,73.5069,80.5464,-4.67,87,100,24.74,overcast clouds
10,Tuktoyaktuk,CA,69.4541,-133.0374,-34.6,67,75,8.05,broken clouds
11,West Bay,KY,19.3667,-81.4167,83.07,71,75,2.3,broken clouds
12,Yellowknife,CA,62.456,-114.3525,-9.58,62,20,4.61,few clouds
13,Mana,GF,5.6592,-53.7767,76.64,89,31,9.26,scattered clouds
14,Punta Arenas,CL,-53.15,-70.9167,48.31,49,20,34.52,few clouds
15,Albany,US,42.6001,-73.9662,25.18,53,100,8.37,overcast clouds
16,Kaitangata,NZ,-46.2817,169.8464,59.94,68,8,0.2,clear sky
17,Mar Del Plata,AR,-38.0023,-57.5575,69.82,63,0,9.22,clear sky
18,Svetlyy,RU,54.675,20.1347,35.65,73,100,16.8,overcast clouds
19,Fairbanks,US,64.8378,-147.7164,14.81,82,100,4.61,light snow
20,Kapaa,US,22.0752,-159.319,79.12,64,75,14.97,broken clouds
21,Okhotsk,RU,59.3833,143.3,-14.66,79,1,11.45,clear sky
22,New Norfolk,AU,-42.7826,147.0587,62.1,71,94,2.37,overcast clouds
23,Guerrero Negro,MX,27.9769,-114.0611,82.27,18,15,6.87,few clouds
24,Alugan,PH,12.2188,125.4808,78.06,81,100,9.48,overcast clouds
25,Tarakan,ID,3.3,117.6333,76.5,94,75,0.0,broken clouds
26,Kirakira,SB,-10.4544,161.9205,80.4,85,99,10.69,overcast clouds
27,Flin Flon,CA,54.7682,-101.865,8.44,66,20,10.36,few clouds
28,East London,ZA,-33.0153,27.9116,72.91,83,83,10.13,broken clouds
29,Nikolskoye,RU,59.7035,30.7861,33.71,89,100,12.71,overcast clouds
30,Port Hardy,CA,50.6996,-127.4199,50.76,62,100,8.05,overcast clouds
31,Tiksi,RU,71.6872,128.8694,-12.62,93,10,11.86,clear sky
32,Ponta Do Sol,PT,32.6667,-17.1,64.06,57,97,2.48,overcast clouds
33,Luderitz,NA,-26.6481,15.1594,74.28,63,0,11.63,clear sky
34,Port Elizabeth,ZA,-33.918,25.5701,68.29,83,20,11.5,few clouds
35,Belmonte,BR,-15.8631,-38.8828,79.3,87,100,7.0,overcast clouds
36,Puri,IN,19.8,85.85,59.52,58,26,6.33,scattered clouds
37,Acatlan,MX,20.15,-98.45,43.03,91,97,6.55,overcast clouds
38,Port Blair,IN,11.6667,92.75,73.44,73,20,2.3,mist
39,Airai,TL,-8.9266,125.4092,58.37,90,37,2.3,scattered clouds
40,Chuy,UY,-33.6971,-53.4616,66.72,50,1,10.09,clear sky
41,Iqaluit,CA,63.7506,-68.5145,-16.31,75,100,3.44,light snow
42,Avarua,CK,-21.2078,-159.775,78.85,83,75,2.3,light rain
43,Rikitea,PF,-23.1203,-134.9692,78.51,71,74,12.59,light rain
44,Cape Town,ZA,-33.9258,18.4232,69.12,83,20,20.71,few clouds
45,San Cristobal,VE,7.7669,-72.225,78.98,43,95,1.3,overcast clouds
46,Ambon,ID,-3.6954,128.1814,77.14,88,40,3.44,scattered clouds
47,Lata,PT,40.1629,-8.3327,53.82,92,65,6.33,broken clouds
48,Waipawa,NZ,-41.4122,175.5153,54.45,76,100,12.39,overcast clouds
49,El Alto,PE,-4.2714,-81.2147,82.06,70,83,11.83,broken clouds
50,Ribeira Grande,PT,38.5167,-28.7,55.8,71,40,5.75,scattered clouds
51,Linares,CL,-35.85,-71.6,84.09,26,12,14.18,few clouds
52,Tasiilaq,GL,65.6145,-37.6368,19.56,82,100,12.93,overcast clouds
53,Saskylakh,RU,71.9167,114.0833,-17.57,88,41,3.0,scattered clouds
54,Bonga,ET,7.2833,36.2333,63.43,64,39,1.34,scattered clouds
55,Vaini,TO,-21.2,-175.2,84.36,79,40,11.5,scattered clouds
56,Kisangani,CD,0.5167,25.2,72.27,74,97,2.91,overcast clouds
57,Nanortalik,GL,60.1432,-45.2371,28.02,82,100,8.72,overcast clouds
58,Izumo,JP,35.3667,132.7667,46.35,70,75,17.27,broken clouds
59,Cherskiy,RU,68.75,161.3,-23.26,97,98,7.85,overcast clouds
60,Houma,US,29.5958,-90.7195,57.2,31,0,17.27,clear sky
61,Cidreira,BR,-30.1811,-50.2056,69.21,93,100,1.88,overcast clouds
62,Murashi,RU,59.3999,48.9615,2.61,100,88,3.8,overcast clouds
63,Bengkulu,ID,-3.8004,102.2655,75.52,89,99,3.94,overcast clouds
64,Nagato,JP,34.3833,131.2,42.71,73,91,16.91,overcast clouds
65,Boshnyakovo,RU,49.6333,142.1667,5.7,97,100,4.12,overcast clouds
66,Svetlogorsk,BY,52.6333,29.7333,27.82,83,34,10.78,scattered clouds
67,Marion,US,39.7684,-86.1555,22.78,72,100,9.22,light snow
68,Necochea,AR,-38.5473,-58.7368,66.07,46,0,5.99,clear sky
69,Butaritari,KI,3.0707,172.7902,81.55,77,60,12.77,light rain
70,Simao,CN,22.7886,100.9748,45.72,50,0,1.88,clear sky
71,Port Alfred,ZA,-33.5906,26.891,71.4,86,87,11.18,overcast clouds
72,Baruun-Urt,MN,46.6806,113.2792,-18.22,99,69,1.68,broken clouds
73,Yulara,AU,-25.2406,130.9889,62.44,48,1,6.91,clear sky
74,Barrow,US,71.2906,-156.7887,-27.38,68,20,10.36,few clouds
75,Clyde River,CA,70.4692,-68.5914,-19.97,69,75,20.71,haze
76,Khatanga,RU,71.9667,102.5,-25.62,96,74,3.15,broken clouds
77,Jamestown,US,42.097,-79.2353,22.32,40,100,9.22,overcast clouds
78,Tubuala,PA,9.5167,-79.0333,90.55,80,70,10.4,broken clouds
79,Salinopolis,BR,-0.6136,-47.3561,78.21,87,100,9.44,overcast clouds
80,Hilo,US,19.7297,-155.09,76.73,80,20,8.05,few clouds
81,Acapulco,MX,16.8634,-99.8901,87.62,62,40,8.05,scattered clouds
82,Bada,RU,51.392,109.8717,-21.15,99,35,2.21,scattered clouds
83,Kampot,KH,10.6167,104.1833,76.62,83,13,3.0,few clouds
84,Yenagoa,NG,4.9247,6.2642,80.33,79,21,4.61,few clouds
85,Mahebourg,MU,-20.4081,57.7,81.25,89,75,11.5,broken clouds
86,Te Anau,NZ,-45.4167,167.7167,57.87,62,38,0.38,scattered clouds
87,Hobart,AU,-42.8794,147.3294,62.46,78,75,11.5,broken clouds
88,Talnakh,RU,69.4865,88.3972,-7.24,69,15,8.88,few clouds
89,Saint-Augustin,CA,51.226,-58.6502,-11.25,91,1,7.11,clear sky
90,Sao Filipe,CV,14.8961,-24.4956,74.35,64,55,11.45,broken clouds
91,Lagoa,PT,39.05,-27.9833,56.57,59,85,4.94,overcast clouds
92,Busselton,AU,-33.65,115.3333,63.05,77,0,11.72,clear sky
93,Cayenne,GF,4.9333,-52.3333,80.1,85,75,5.01,broken clouds
94,Russell,US,32.3502,-85.1999,53.2,22,0,21.85,clear sky
95,Karratha,AU,-20.7377,116.8463,84.87,59,76,5.03,broken clouds
96,San Quintin,MX,30.4833,-115.95,75.22,24,4,10.45,clear sky
97,Verkhnyaya Toyma,RU,62.2349,44.9985,-3.21,100,98,4.12,overcast clouds
98,Christchurch,NZ,-43.5333,172.6333,61.03,84,100,11.5,overcast clouds
99,Chokurdakh,RU,70.6333,147.9167,-6.77,93,100,9.31,overcast clouds
100,Cockburn Town,TC,21.4612,-71.1419,80.56,69,40,13.8,scattered clouds
101,Castro,BR,-24.7911,-50.0119,70.88,81,14,11.12,few clouds
102,Gus-Zheleznyy,RU,55.0581,41.1656,22.24,95,99,6.87,light snow
103,Ornskoldsvik,SE,63.2909,18.7153,32.95,100,59,5.75,broken clouds
104,Inverell,AU,-29.7833,151.1167,65.1,71,0,3.0,clear sky
105,Caravelas,BR,-17.7125,-39.2481,76.68,84,77,6.78,broken clouds
106,Ancud,CL,-41.8697,-73.8203,78.22,75,13,4.68,few clouds
107,Sitka,US,57.0531,-135.33,42.69,75,100,4.61,light rain
108,Umm Lajj,SA,25.0213,37.2685,67.05,35,0,14.07,clear sky
109,Mount Isa,AU,-20.7333,139.5,73.17,94,24,1.14,few clouds
110,Lebu,CL,-37.6167,-73.65,63.73,77,72,8.59,broken clouds
111,Qaanaaq,GL,77.484,-69.3632,-6.95,83,99,4.52,overcast clouds
112,Alice Springs,AU,-23.7,133.8833,62.15,72,0,4.61,clear sky
113,Rohtak,IN,28.9,76.5667,55.49,68,0,4.94,clear sky
114,Macenta,GN,8.5435,-9.471,72.3,31,11,2.57,few clouds
115,Dunedin,NZ,-45.8742,170.5036,57.56,67,3,3.11,clear sky
116,Turbat,PK,26.0023,63.044,67.32,50,5,5.08,clear sky
117,Kristiansund,NO,63.1115,7.732,35.65,93,75,12.66,broken clouds
118,Meadow Lake,US,34.8014,-106.5436,57.97,15,0,4.59,clear sky
119,Agadez,NE,19.75,10.25,62.46,14,2,5.01,clear sky
120,Georgetown,MY,5.4112,100.3354,79.9,91,40,5.01,scattered clouds
121,Vardo,NO,70.3705,31.1107,21.4,93,100,24.61,light snow
122,Atuona,PF,-9.8,-139.0333,77.97,78,22,12.91,light rain
123,Sao Joao Da Barra,BR,-21.6403,-41.0511,78.89,89,6,10.51,clear sky
124,Chipinge,ZW,-20.1883,32.6236,61.68,62,4,2.89,clear sky
125,Bredasdorp,ZA,-34.5322,20.0403,67.32,73,96,12.66,overcast clouds
126,Linhares,BR,-19.3911,-40.0722,75.4,88,33,6.29,scattered clouds
127,Sarh,TD,9.1429,18.3923,81.9,14,100,4.14,overcast clouds
128,Beringovskiy,RU,63.05,179.3167,-24.93,96,16,7.09,few clouds
129,Yashkul,RU,46.1711,45.3435,32.14,56,0,7.27,clear sky
130,Sao Felix Do Xingu,BR,-6.6447,-51.995,72.52,90,98,2.13,overcast clouds
131,Grindavik,IS,63.8424,-22.4338,28.35,86,0,6.91,clear sky
132,Qui Nhon,VN,13.7667,109.2333,74.52,90,96,8.86,overcast clouds
133,Hornepayne,CA,49.2138,-84.7705,2.48,76,100,3.49,overcast clouds
134,Bluff,NZ,-46.6,168.3333,57.79,71,18,2.98,few clouds
135,Fortuna,US,40.5982,-124.1573,72.43,62,92,4.38,overcast clouds
136,Strezhevoy,RU,60.7333,77.5889,-5.03,95,97,9.31,overcast clouds
137,Kavaratti,IN,10.5669,72.642,80.2,72,40,4.0,scattered clouds
138,Manggar,ID,-2.8833,108.2667,77.05,86,95,1.28,overcast clouds
139,Shimoda,JP,34.6667,138.95,36.1,90,100,20.09,overcast clouds
140,Sorland,NO,67.667,12.6934,32.07,55,100,23.17,overcast clouds
141,Ilulissat,GL,69.2167,-51.1,26.62,50,100,17.27,overcast clouds
142,Lavrentiya,RU,65.5833,-171.0,-20.25,93,30,2.73,scattered clouds
143,Pisco,PE,-13.7,-76.2167,77.05,61,0,17.27,clear sky
144,Victoria,HK,22.2855,114.1577,61.95,87,100,11.01,overcast clouds
145,Katsuura,JP,35.1333,140.3,38.1,96,100,27.45,moderate rain
146,Araouane,ML,18.9048,-3.5265,63.77,18,73,11.36,broken clouds
147,Otofuke,JP,42.9917,143.2003,7.48,94,67,2.91,broken clouds
148,Yinchuan,CN,38.4681,106.2731,19.8,55,89,6.62,overcast clouds
149,Rawson,AR,-43.3002,-65.1023,85.33,22,0,23.44,clear sky
150,Komsomolskiy,UZ,40.4272,71.7189,38.12,87,75,6.91,mist
151,Saint-Philippe,RE,-21.3585,55.7679,80.19,88,40,11.01,scattered clouds
152,Kurchum,KZ,48.5722,83.6542,13.08,93,100,2.24,overcast clouds
153,Saint George,US,37.1041,-113.5841,72.07,15,0,1.01,clear sky
154,San Policarpo,PH,12.1791,125.5072,78.64,80,99,10.31,overcast clouds
155,Ligayan,PH,4.6533,119.4706,81.88,76,99,10.94,overcast clouds
156,Yelan-Koleno,RU,51.1523,41.2306,14.31,91,16,8.25,few clouds
157,Black River,JM,18.0264,-77.8487,82.98,61,21,5.61,few clouds
158,Norman Wells,CA,65.282,-126.8329,-9.36,64,75,3.44,broken clouds
159,Charlestown,AU,-32.95,151.6667,73.72,76,94,1.99,overcast clouds
160,Barahona,DO,18.2085,-71.1008,84.02,74,20,13.8,few clouds
161,Esperance,AU,-33.8667,121.9,58.84,73,26,9.89,scattered clouds
162,Tazovskiy,RU,67.4667,78.7,-9.45,96,35,10.92,scattered clouds
163,Saysain,PH,14.5611,120.3925,78.17,87,72,7.58,broken clouds
164,Richards Bay,ZA,-28.783,32.0377,75.87,92,70,5.08,broken clouds
165,Dondo,MZ,-19.6094,34.7431,78.31,87,22,3.67,few clouds
166,Longyearbyen,SJ,78.2186,15.6401,15.64,92,75,3.44,light snow
167,Cabedelo,BR,-6.9811,-34.8339,83.07,77,9,11.27,clear sky
168,Qiongshan,CN,20.0058,110.3542,60.78,100,75,13.42,mist
169,Tutoia,BR,-2.7619,-42.2744,80.58,81,8,13.56,clear sky
170,Benguela,AO,-12.5763,13.4055,76.33,82,88,1.83,overcast clouds
171,Ola,RU,59.5833,151.2833,-7.35,79,70,10.16,broken clouds
172,Tabas,IR,33.5959,56.9244,47.82,46,0,9.35,clear sky
173,Bilibino,RU,68.0546,166.4372,-32.19,100,86,2.51,overcast clouds
174,Rocha,UY,-34.4833,-54.3333,63.09,62,4,10.0,clear sky
175,Roald,NO,62.5833,6.1333,39.11,93,75,16.11,broken clouds
176,Maceio,BR,-9.6658,-35.7353,81.84,69,0,12.66,clear sky
177,Nannilam,IN,10.8793,79.6106,72.1,84,13,4.79,few clouds
178,Upernavik,GL,72.7868,-56.1549,-5.93,97,100,13.91,overcast clouds
179,Dongsheng,CN,39.8161,109.9776,7.86,62,79,1.54,broken clouds
180,Oriximina,BR,-1.7656,-55.8661,79.86,79,86,0.69,overcast clouds
181,Kudahuvadhoo,MV,2.6708,72.8944,80.85,79,100,10.04,overcast clouds
182,Prince Rupert,CA,54.3161,-130.3201,50.09,66,100,14.97,light rain
183,Labuan,MY,5.2767,115.2417,78.96,94,20,0.0,few clouds
184,Potamia,GR,40.7163,24.7286,44.65,60,49,8.5,scattered clouds
185,Taoudenni,ML,22.6783,-3.9836,63.55,24,0,11.03,clear sky
186,Bardiyah,LY,31.7561,25.0865,55.54,69,0,6.46,clear sky
187,Klaksvik,FO,62.2266,-6.589,34.72,70,100,30.11,overcast clouds
188,Huangchuan,CN,32.1272,115.0394,38.73,85,32,1.16,scattered clouds
189,Havre-Saint-Pierre,CA,50.2334,-63.5986,5.0,65,0,11.5,clear sky
190,Lengshuitan,CN,26.4111,111.5956,39.94,89,77,2.33,broken clouds
191,Sandpoint,US,48.2766,-116.5533,49.55,60,0,3.0,clear sky
192,Pangody,RU,65.85,74.4859,-13.86,98,91,9.31,overcast clouds
193,Quatre Cocos,MU,-20.2078,57.7625,81.09,83,84,14.12,light rain
194,Provideniya,RU,64.3833,-173.3,-5.69,65,0,6.71,clear sky
195,Zemio,CF,5.0314,25.1361,78.64,25,85,5.39,overcast clouds
196,Yuli,NG,9.6989,10.2744,76.71,15,28,6.22,scattered clouds
197,Snyder,US,32.7179,-100.9176,64.54,14,0,4.61,clear sky
198,Thompson,CA,55.7435,-97.8558,-3.84,65,75,8.05,broken clouds
199,Luba,GQ,3.4568,8.5547,78.69,79,100,8.25,overcast clouds
200,San Patricio,US,28.017,-97.5169,66.61,22,19,5.73,few clouds
201,Kahului,US,20.8947,-156.47,78.96,67,40,14.97,scattered clouds
202,Mehriz,IR,31.5917,54.4318,39.7,51,0,3.67,clear sky
203,Aklavik,CA,68.2191,-135.0107,-22.97,96,100,6.35,light snow
204,Petropavlovsk-Kamchatskiy,RU,53.0452,158.6483,15.78,57,75,8.95,broken clouds
205,Broome,US,42.2506,-75.833,22.62,63,100,11.5,overcast clouds
206,Isangel,VU,-19.55,169.2667,84.31,84,40,2.3,volcanic ash
207,Anzio,IT,41.4853,12.6179,53.31,92,88,6.51,overcast clouds
208,Arnedo,ES,42.2167,-2.1,49.5,69,100,8.72,overcast clouds
209,Ballina,AU,-28.8667,153.5667,68.04,96,100,8.05,overcast clouds
210,Balabac,PH,7.9868,117.0645,80.17,79,92,12.68,overcast clouds
211,Geraldton,AU,-28.7667,114.6,73.81,88,100,0.0,overcast clouds
212,Plettenberg Bay,ZA,-34.0527,23.3716,68.36,79,39,0.63,light rain
213,Istisu,AZ,40.9457,48.0738,30.87,97,96,4.45,light snow
214,Padang,ID,-0.9492,100.3543,76.19,82,99,4.36,overcast clouds
215,Srednekolymsk,RU,67.45,153.6833,-34.1,99,22,6.22,few clouds
216,Lakatoro,VU,-16.0999,167.4164,83.12,77,91,13.27,overcast clouds
217,Kariba,ZW,-16.5167,28.8,71.19,79,97,4.79,overcast clouds
218,Tecoanapa,MX,16.5167,-98.75,84.69,54,68,10.74,broken clouds
219,Karlskoga,SE,59.3267,14.5239,38.52,97,100,10.96,light rain
220,Bambous Virieux,MU,-20.3428,57.7575,81.21,89,75,11.5,broken clouds
221,Vostok,RU,46.4856,135.8833,1.47,99,100,0.69,overcast clouds
222,Boyolangu,ID,-8.1181,111.8935,74.35,93,100,2.89,moderate rain
223,Iwanai,JP,42.9744,140.5089,24.17,95,87,3.85,light snow
224,Caldas Novas,BR,-17.7417,-48.625,70.68,91,36,3.44,scattered clouds
225,Goundam,ML,16.4145,-3.6708,68.0,17,26,10.69,scattered clouds
226,Nioro,GM,13.35,-15.75,80.02,11,35,7.78,scattered clouds
227,Udachnyy,RU,66.4167,112.4,-22.11,93,74,1.83,broken clouds
228,Dariba,IN,24.95,74.1333,54.3,39,0,1.86,clear sky
229,Dingle,PH,10.9995,122.6711,73.98,94,96,6.51,overcast clouds
230,Manicore,BR,-5.8092,-61.3003,77.07,93,100,1.59,light rain
231,Carnarvon,AU,-24.8667,113.6333,77.07,88,3,0.0,clear sky
232,Saint-Francois,FR,46.4154,3.9054,48.67,65,0,17.27,clear sky
233,Muriwai Beach,NZ,-36.8167,174.45,71.42,71,22,7.27,few clouds
234,Seymchan,RU,62.8833,152.4333,-43.49,100,71,0.56,broken clouds
235,Garowe,SO,8.4054,48.4845,67.23,78,44,10.2,scattered clouds
236,Corum,TR,40.5,34.75,28.78,93,100,1.72,overcast clouds
237,Puerto Escondido,MX,15.85,-97.0667,86.45,51,76,6.22,broken clouds
238,Pacific Grove,US,36.6177,-121.9166,84.42,56,0,4.0,clear sky
239,Timra,SE,62.487,17.3257,31.68,93,14,3.44,fog
240,Goderich,CA,43.7501,-81.7165,15.91,79,100,3.44,snow
241,Grand Gaube,MU,-20.0064,57.6608,81.37,77,91,7.0,overcast clouds
242,Noumea,NC,-22.2763,166.4572,85.98,99,100,3.94,overcast clouds
243,Siderno,IT,38.2779,16.302,56.39,86,8,3.67,clear sky
244,Yar-Sale,RU,66.8333,70.8333,-16.06,97,100,8.57,overcast clouds
245,Belle Glade,US,26.6845,-80.6676,74.98,64,100,12.84,overcast clouds
246,Novosokolniki,RU,56.3463,30.1578,26.01,83,100,12.24,overcast clouds
247,Bethel,US,41.3712,-73.414,30.56,67,100,10.36,overcast clouds
248,Damietta,EG,31.4165,31.8133,57.09,72,0,9.51,clear sky
249,Bac Lieu,VN,9.285,105.7244,79.05,80,16,14.41,few clouds
250,Liverpool,GB,53.4106,-2.9779,46.69,90,40,6.91,scattered clouds
251,Nova Olimpia,BR,-14.7972,-57.2881,75.18,96,97,1.07,heavy intensity rain
252,Telsiai,LT,55.9814,22.2472,31.51,75,100,15.05,overcast clouds
253,Nishihara,JP,26.1842,127.7558,65.48,88,75,26.46,moderate rain
254,Odweyne,SO,9.4092,45.064,65.43,36,97,11.03,overcast clouds
255,Kysyl-Syr,RU,63.8986,122.7617,-28.68,100,99,0.6,overcast clouds
256,Kodiak,US,57.79,-152.4072,35.11,75,0,4.61,clear sky
257,Damaturu,NG,11.747,11.9608,70.5,15,33,8.93,scattered clouds
258,Shelburne,CA,44.0787,-80.2041,13.77,69,100,5.08,light snow
259,Lompoc,US,34.6391,-120.4579,85.78,33,0,11.5,clear sky
260,Hokitika,NZ,-42.7167,170.9667,60.6,49,7,1.74,clear sky
261,Swellendam,ZA,-34.0226,20.4417,66.58,86,82,11.68,broken clouds
262,Kawalu,ID,-7.3817,108.2082,72.07,95,100,1.63,overcast clouds
263,Chapais,CA,49.7834,-74.8492,-6.02,92,100,1.77,overcast clouds
264,Salalah,OM,17.0151,54.0924,77.09,23,0,19.57,clear sky
265,Teya,RU,60.3778,92.6267,-19.44,100,16,3.49,few clouds
266,Jesup,US,31.6074,-81.8854,65.89,39,0,12.66,clear sky
267,Dalmau,IN,26.0667,81.0333,52.32,62,0,2.08,clear sky
268,Farnham,GB,51.2143,-0.7959,50.29,81,75,19.57,moderate rain
269,Katherine,AU,-14.4667,132.2667,75.52,94,59,3.44,broken clouds
270,Comodoro Rivadavia,AR,-45.8667,-67.5,76.86,41,20,21.85,few clouds
271,Aykhal,RU,66.0,111.5,-8.3,50,42,1.32,scattered clouds
272,Nizhniy Tsasuchey,RU,50.5167,115.1333,-21.68,100,36,3.51,scattered clouds
273,Huarmey,PE,-10.0681,-78.1522,75.74,72,9,11.21,clear sky
274,Elat,IL,29.5581,34.9482,58.84,38,0,13.8,clear sky
275,Kelvington,CA,52.1667,-103.5343,13.66,90,100,12.97,overcast clouds
276,Vestmannaeyjar,IS,63.4427,-20.2734,33.8,74,99,29.39,overcast clouds
277,Dom Pedrito,BR,-30.9828,-54.6731,75.45,22,0,9.28,clear sky
278,Saldanha,ZA,-33.0117,17.9442,68.05,91,0,20.56,clear sky
279,Ishigaki,JP,24.3448,124.1572,64.53,94,75,16.11,broken clouds
280,Lesozavodsk,RU,45.4794,133.4244,-13.32,100,100,0.56,overcast clouds
281,Vila Velha,BR,-20.3297,-40.2925,78.75,92,75,13.8,thunderstorm
282,Riyadh,SA,24.6877,46.7219,51.94,31,0,8.59,clear sky
283,Mangrol,IN,21.1167,70.1167,66.04,61,0,11.41,clear sky
284,Erzin,TR,36.9559,36.2,47.12,78,51,2.37,broken clouds
285,Nuevo Progreso,MX,23.1667,-97.95,66.6,32,95,5.99,overcast clouds
286,Togur,RU,58.3631,82.8265,6.21,94,100,11.5,light snow
287,Trinidad,BO,-14.8333,-64.9,84.18,61,75,5.75,broken clouds
288,Champawat,IN,29.3333,80.1,38.8,93,0,4.34,clear sky
289,Anadyr,RU,64.75,177.4833,-30.5,75,0,11.18,clear sky
290,Camabatela,AO,-8.1881,15.375,61.11,94,100,1.28,moderate rain
291,Abasolo,MX,20.45,-101.5167,70.66,31,80,9.26,broken clouds
292,Constitucion,CL,-35.3333,-72.4167,65.46,76,57,7.25,broken clouds
293,Brownsville,US,25.9018,-97.4975,63.9,33,0,12.66,clear sky
294,Onega,RU,63.9061,38.1404,23.02,93,100,12.55,snow
295,Tecpan,GT,14.7623,-90.9947,65.16,74,89,8.16,overcast clouds
296,Luziania,BR,-16.2525,-47.9503,78.49,94,51,4.52,broken clouds
297,Eyl,SO,7.9803,49.8164,74.28,68,90,15.95,overcast clouds
298,Walvis Bay,NA,-22.9575,14.5053,75.09,83,5,4.61,light rain
299,Teguldet,RU,57.3064,88.1667,-1.12,93,66,9.42,broken clouds
300,Tiarei,PF,-17.5333,-149.3333,87.82,75,82,15.75,broken clouds
301,Puerto Leguizamo,CO,-0.1934,-74.7819,81.9,72,100,2.26,overcast clouds
302,Bhunya,SZ,-26.55,31.0167,62.67,78,65,1.74,broken clouds
303,Arraial Do Cabo,BR,-22.9661,-42.0278,78.76,83,20,12.66,few clouds
304,Ipixuna,BR,-1.7625,-48.8043,82.35,96,97,3.6,overcast clouds
305,Puerto Ayora,EC,-0.7393,-90.3518,82.36,88,90,4.0,overcast clouds
306,Saint-Joseph,RE,-21.3667,55.6167,77.38,85,19,11.39,few clouds
307,Yerbogachen,RU,61.2767,108.0108,-30.28,100,89,3.27,overcast clouds
308,Karatau,KZ,43.1667,70.4667,34.48,88,100,3.8,overcast clouds
309,Jimenez,MX,28.3333,-105.4,62.89,16,63,2.39,broken clouds
310,Muret,FR,43.3333,1.25,51.24,94,100,1.99,overcast clouds
311,Narsaq,GL,60.9167,-46.05,28.62,89,100,5.44,overcast clouds
312,Pilar,BR,-9.5972,-35.9567,80.53,76,85,11.07,overcast clouds
313,Emerald,AU,-23.5333,148.1667,73.54,68,0,11.5,clear sky
314,Taltal,CL,-25.4,-70.4833,70.38,70,19,6.38,few clouds
315,Bauta,CU,22.9828,-82.5464,75.09,78,75,8.05,broken clouds
316,Hasaki,JP,35.7333,140.8333,36.0,81,100,31.65,light rain
317,Natal,BR,-5.795,-35.2094,83.05,78,20,13.8,few clouds
318,Safaga,EG,26.7292,33.9365,62.55,47,0,10.16,clear sky
319,Blackwater,AU,-23.5833,148.8833,74.48,63,0,15.08,clear sky
320,Meulaboh,ID,4.1363,96.1285,76.26,89,94,5.23,overcast clouds
321,Ca Mau,VN,9.1769,105.15,77.32,84,21,7.14,few clouds
322,Gravdal,NO,68.1214,13.5031,31.89,74,40,28.77,scattered clouds
323,Lubango,AO,-14.9172,13.4925,58.78,74,78,1.97,broken clouds
324,Ulladulla,AU,-35.35,150.4667,66.87,62,100,7.58,overcast clouds
325,Puerto El Triunfo,SV,13.2833,-88.55,101.26,58,18,11.36,few clouds
326,Kragero,NO,58.8693,9.4149,42.58,95,100,15.21,overcast clouds
327,Paamiut,GL,61.994,-49.6678,11.59,94,100,18.14,light snow
328,Biak,ID,-0.9131,122.8766,75.18,85,100,6.11,overcast clouds
329,Kavieng,PG,-2.5744,150.7967,82.08,76,97,6.2,overcast clouds
330,Busembatia,UG,0.7697,33.6131,70.75,73,86,4.54,overcast clouds
331,Luanda,AO,-8.8368,13.2343,78.8,78,0,4.61,clear sky
332,Alofi,NU,-19.0595,-169.9187,84.09,70,100,10.36,overcast clouds
333,Sabha,LY,27.0377,14.4283,54.72,26,0,8.88,clear sky
334,Nata,PA,8.3333,-80.5167,87.67,45,81,15.9,broken clouds
335,Dwarka,IN,22.2394,68.9678,69.42,61,0,9.73,clear sky
336,Lewisporte,CA,49.2499,-55.0482,29.91,69,95,10.11,overcast clouds
337,Shenjiamen,CN,29.9576,122.298,43.39,77,63,15.73,broken clouds
338,Jalu,LY,29.0331,21.5482,55.24,52,66,7.14,broken clouds
339,Terenos,BR,-20.4422,-54.8603,92.91,35,40,2.3,scattered clouds
340,Vallenar,CL,-28.5708,-70.7581,79.3,34,0,8.79,clear sky
341,Murighiol,RO,45.0333,29.1667,28.89,79,99,4.23,overcast clouds
342,Hamilton,US,39.1834,-84.5333,29.62,67,100,10.36,overcast clouds
343,Severodvinsk,RU,64.5635,39.8302,8.71,86,100,13.09,overcast clouds
344,Buriti Bravo,BR,-5.8372,-43.8336,73.98,93,100,3.91,light rain
345,Afzalpur,IN,17.2,76.35,73.18,29,4,10.02,clear sky
346,Cabo San Lucas,MX,22.8909,-109.9124,83.52,64,100,1.01,overcast clouds
347,Caninde,BR,-4.3589,-39.3117,80.01,63,43,7.36,scattered clouds
348,Qandala,SO,11.472,49.8728,73.76,60,32,3.62,scattered clouds
349,Davila,PH,18.4726,120.5763,75.18,75,38,1.52,scattered clouds
350,La Sarre,CA,48.8002,-79.1996,-5.71,89,99,2.89,overcast clouds
351,Bairiki,KI,1.3292,172.9752,84.2,70,20,8.05,few clouds
352,Puerto Quijarro,BO,-17.7833,-57.7667,85.82,56,96,2.82,overcast clouds
353,Gwadar,PK,25.1216,62.3254,70.56,68,81,2.95,broken clouds
354,Jutai,BR,-5.1833,-68.9,75.27,97,100,2.68,moderate rain
355,Naze,JP,28.3667,129.4833,58.12,88,100,20.04,overcast clouds
356,Burnie,AU,-41.0667,145.9167,61.95,81,78,0.69,broken clouds
357,Bonthe,SL,7.5264,-12.505,78.46,87,52,8.55,broken clouds
358,Ostrovnoy,RU,68.0531,39.5131,18.73,65,100,21.88,overcast clouds
359,Celestun,MX,20.8667,-90.4,73.22,72,84,20.58,broken clouds
360,Honiara,SB,-9.4333,159.95,82.65,76,85,4.54,overcast clouds
361,Berdigestyakh,RU,62.0989,126.6992,-31.38,100,100,1.23,overcast clouds
362,Pachino,IT,36.7186,15.0907,48.24,82,66,6.33,broken clouds
363,Qaqortoq,GL,60.7167,-46.0333,28.9,88,100,3.89,overcast clouds
364,Ratnagiri,IN,16.9833,73.3,71.47,63,4,8.1,clear sky
365,Seoul,KR,37.5683,126.9778,27.79,87,0,1.14,clear sky
366,Sangar,RU,63.9242,127.4739,-37.75,100,44,1.88,scattered clouds
367,San Juan,AR,-31.5375,-68.5364,86.31,22,17,4.83,few clouds
368,Ahipara,NZ,-35.1667,173.1667,67.37,60,87,9.13,overcast clouds
369,Tuatapere,NZ,-46.1333,167.6833,57.81,56,33,2.13,scattered clouds
370,Puerto Baquerizo Moreno,EC,-0.9,-89.6,81.59,74,75,12.66,broken clouds
371,Kungurtug,RU,50.5994,97.5228,-23.62,97,95,1.74,overcast clouds
372,Bontang,ID,0.1333,117.5,77.92,85,92,4.72,overcast clouds
373,Pandan,PH,14.0453,124.1694,75.81,85,45,9.26,scattered clouds
374,Huilong,CN,31.8111,121.655,41.04,84,0,9.1,clear sky
375,Avera,US,33.194,-82.5271,60.67,29,7,17.74,clear sky
376,Avesta,SE,60.1455,16.1679,44.62,93,100,11.63,overcast clouds
377,La Palma,US,33.8464,-118.0467,90.95,19,20,8.05,few clouds
378,Arrifes,PT,37.7667,-25.7,58.23,58,75,4.61,broken clouds
379,Porto Santo,PT,33.072,-16.3415,60.71,67,20,12.66,few clouds
380,Tessalit,ML,20.1986,1.0114,65.98,17,14,9.19,few clouds
381,Mama,RU,58.3106,112.8986,-31.34,99,50,5.41,scattered clouds
382,Havelock,US,34.8791,-76.9013,46.63,88,100,5.01,overcast clouds
383,Antofagasta,CL,-23.65,-70.4,73.22,62,85,9.28,overcast clouds
384,Bundaberg,AU,-24.85,152.35,73.22,86,40,9.22,scattered clouds
385,Ketchikan,US,55.3422,-131.6461,46.38,87,100,5.75,light rain
386,Toamasina,MG,-18.1667,49.3833,77.47,85,41,2.39,light rain
387,Inhambane,MZ,-23.865,35.3833,76.41,83,2,8.1,clear sky
388,Haines Junction,CA,60.7522,-137.5108,19.35,73,100,1.14,overcast clouds
389,Victoria Point,AU,-27.5833,153.3,77.14,81,79,5.01,light rain
390,Narasannapeta,IN,18.4167,84.05,64.33,57,10,5.46,clear sky
391,Pleasanton,US,37.6624,-121.8747,79.48,43,0,10.36,clear sky
392,Hambantota,LK,6.1241,81.1185,73.74,100,40,2.3,scattered clouds
393,Sao Gabriel Da Cachoeira,BR,-0.1303,-67.0892,73.2,100,75,2.3,thunderstorm with rain
394,Sale,MA,34.0389,-6.8166,57.74,100,39,0.0,scattered clouds
395,Riberalta,BO,-10.9833,-66.1,84.4,74,75,11.5,broken clouds
396,Atar,MR,20.5169,-13.0499,69.89,19,100,9.8,overcast clouds
397,Urgut,UZ,39.4022,67.2431,37.02,83,79,2.55,broken clouds
398,Ekibastuz,KZ,51.6667,75.3667,2.79,98,72,2.82,broken clouds
399,Gazli,UZ,40.1333,63.45,39.79,53,51,10.0,broken clouds
400,Nome,US,64.5011,-165.4064,-9.83,70,0,0.0,clear sky
401,Mabai,CN,23.0128,104.4508,46.9,94,99,2.01,overcast clouds
402,Spearfish,US,44.4908,-103.8594,55.02,33,100,16.11,overcast clouds
403,Jishou,CN,28.3167,109.7167,42.67,83,97,1.54,overcast clouds
404,Illapel,CL,-31.6308,-71.1653,75.34,52,0,7.29,clear sky
405,Terrace Bay,CA,48.7834,-87.1,6.42,81,34,5.97,scattered clouds
406,Carauari,BR,-4.8828,-66.8958,74.16,98,100,0.96,moderate rain
407,Mitsamiouli,KM,-11.3847,43.2844,80.4,80,8,0.76,clear sky
408,Victor Harbor,AU,-35.5667,138.6167,75.79,86,45,1.01,scattered clouds
409,Sao Jose Da Coroa Grande,BR,-8.8978,-35.1478,81.0,74,11,13.89,few clouds
410,Fuchu,JP,35.6667,139.4833,38.43,95,100,8.05,mist
411,San Jeronimo,PE,-11.9472,-75.2829,52.48,83,100,3.65,overcast clouds
412,Kaeo,NZ,-35.1,173.7833,69.33,72,85,5.59,overcast clouds
413,Golden,US,39.7555,-105.2211,58.48,23,8,5.99,clear sky
414,Gizo,SB,-8.103,156.8419,82.26,75,80,4.88,light rain
415,Ryotsu,JP,38.0833,138.4333,39.16,68,77,9.93,broken clouds
416,Northam,GB,51.0333,-4.2167,47.61,90,100,21.47,overcast clouds
417,Suzun,RU,53.7841,82.3116,22.1,91,100,12.84,light snow
418,Krasnyy Chikoy,RU,50.3643,108.7512,-30.12,100,52,1.95,broken clouds
419,Leningradskiy,RU,69.3833,178.4167,-17.23,92,94,6.17,overcast clouds
420,Bulungu,CD,-4.55,18.6,71.2,94,100,0.38,overcast clouds
421,Northfield,US,44.4583,-93.1616,9.73,56,0,6.91,clear sky
422,Bandarbeyla,SO,9.4942,50.8122,74.41,67,31,14.99,scattered clouds
423,Sakaiminato,JP,35.55,133.2333,46.38,61,75,19.57,broken clouds
424,Zhuhai,CN,22.2769,113.5678,61.7,88,40,20.71,scattered clouds
425,Madison,US,34.7334,-86.5667,44.94,34,0,3.44,clear sky
426,Marystown,CA,47.1666,-55.1483,32.86,100,79,7.0,broken clouds
427,Yanam,IN,16.7333,82.2167,67.23,79,8,2.51,clear sky
428,Kearney,US,40.6995,-99.0815,43.36,38,0,13.8,clear sky
429,Abha,SA,18.2164,42.5053,53.85,33,0,0.0,clear sky
430,Biloxi,US,30.396,-88.8853,56.03,20,0,17.27,clear sky
431,Ramgarh,IN,23.6333,85.5167,57.25,39,0,4.21,clear sky
432,Guantanamo,CU,20.1444,-75.2092,83.77,57,5,6.85,clear sky
433,Henties Bay,NA,-22.116,14.2845,74.86,88,60,2.33,moderate rain
434,Kuytun,RU,54.3419,101.5036,-27.29,100,100,3.15,overcast clouds
435,Koungou,YT,-12.7336,45.2042,78.51,89,40,4.61,scattered clouds
436,Kumba,CM,4.6363,9.4469,74.97,82,58,1.83,broken clouds
437,Marsh Harbour,BS,26.5412,-77.0636,74.35,82,100,17.25,light rain
438,Marsabit,KE,2.3284,37.9899,71.26,41,19,9.73,few clouds
439,Mahajanga,MG,-15.7167,46.3167,79.11,80,19,2.15,light rain
440,Bubaque,GW,11.2833,-15.8333,78.19,71,4,14.32,clear sky
441,Imbituba,BR,-28.24,-48.6703,82.29,83,49,3.36,scattered clouds
442,Capaci,IT,38.1711,13.2393,52.5,77,40,5.75,scattered clouds
443,Kwekwe,ZW,-18.9281,29.8149,65.73,77,5,5.32,clear sky
444,Muktsar,IN,30.4833,74.5167,49.5,78,1,6.8,clear sky
445,Chancay,PE,-11.5714,-77.2672,80.33,75,34,8.39,scattered clouds
446,Husavik,IS,66.0449,-17.3389,-7.69,78,69,14.09,broken clouds
447,Haimen,CN,23.1935,116.6142,55.29,89,100,8.88,light rain
448,Mantua,IT,45.1667,10.7833,43.75,70,31,1.99,scattered clouds
449,Touros,BR,-5.1989,-35.4608,83.3,76,8,12.95,clear sky
450,Hualmay,PE,-11.0964,-77.6139,74.97,72,9,11.59,clear sky
451,Santa Rosa,PH,14.3122,121.1114,78.12,88,97,6.55,overcast clouds
452,Saint Anthony,US,45.0205,-93.218,9.66,54,40,6.91,scattered clouds
453,Vyatskiye Polyany,RU,56.226,51.0656,-0.6,100,98,3.67,overcast clouds
454,Korla,CN,41.7597,86.1469,28.35,47,0,4.29,clear sky
455,Mersin,TR,36.862,34.6509,45.75,79,28,4.41,scattered clouds
456,Keti Bandar,PK,24.1447,67.4497,68.2,59,0,7.81,clear sky
457,Asosa,ET,10.0667,34.5333,69.85,24,44,5.46,scattered clouds
458,Itarema,BR,-2.9248,-39.9167,79.7,78,8,14.05,clear sky
459,Inirida,CO,3.8653,-67.9239,83.88,62,88,0.51,overcast clouds
460,Tshikapa,CD,-6.4167,20.8,70.23,97,100,2.71,overcast clouds
461,Taksimo,RU,56.3444,114.8794,-26.63,91,24,1.43,few clouds
462,Bari,IT,41.1177,16.8512,50.54,81,0,6.91,clear sky
463,Leninskoye,KZ,41.7589,69.3864,39.13,78,100,4.94,overcast clouds
464,Xinyu,CN,27.8043,114.9334,42.96,94,98,1.48,overcast clouds
465,Mayo,US,38.8876,-76.5119,35.37,75,100,10.36,overcast clouds
466,Gat,IL,31.61,34.7642,56.39,81,11,2.48,few clouds
467,Axim,GH,4.8699,-2.2405,78.37,88,11,6.06,light rain
468,Miyako,JP,39.6367,141.9525,31.95,59,88,4.47,overcast clouds
469,Palmer,US,42.1584,-72.3287,30.38,63,100,8.05,overcast clouds
470,Vestmanna,FO,62.1564,-7.1664,32.92,64,100,11.5,overcast clouds
471,Manacapuru,BR,-3.2997,-60.6206,81.18,90,100,3.6,light rain
472,Buala,SB,-8.145,159.5921,80.82,82,96,7.34,light rain
473,Nouadhibou,MR,20.931,-17.0347,67.98,73,100,14.97,overcast clouds
474,Port-Cartier,CA,50.0334,-66.8654,1.62,83,64,5.73,broken clouds
475,La Tuque,CA,47.4334,-72.7824,1.65,55,80,6.91,broken clouds
476,Sindor,RU,62.8629,51.8905,0.25,100,100,3.76,overcast clouds
477,Juneau,US,58.3019,-134.4197,39.85,95,100,3.44,overcast clouds
478,Brae,GB,60.3964,-1.353,40.91,87,97,14.56,overcast clouds
479,Somanda,TZ,-3.3667,33.95,66.27,82,64,0.72,light rain
480,Chimoio,MZ,-19.1164,33.4833,71.46,94,20,0.96,few clouds
481,Coruripe,BR,-10.1256,-36.1756,80.76,76,100,14.92,overcast clouds
482,Kruisfontein,ZA,-34.0033,24.7314,65.32,84,23,6.78,few clouds
483,Olafsvik,IS,64.8945,-23.7142,31.6,84,100,12.06,snow
484,Moron,AR,-34.6534,-58.6198,80.35,35,0,7.94,clear sky
485,Champasak,LA,14.75,106.0,73.9,77,94,2.04,overcast clouds
486,Yarkovo,RU,57.4028,67.0786,-7.92,100,73,1.57,broken clouds
487,Whitianga,NZ,-36.8333,175.7,71.02,60,3,3.47,clear sky
488,Oistins,BB,13.0667,-59.5333,78.89,65,75,19.57,broken clouds
489,Takoradi,GH,4.8845,-1.7554,78.71,87,61,7.0,light rain
490,Catuday,PH,16.2923,119.8062,76.82,79,74,11.05,broken clouds
491,Pevek,RU,69.7008,170.3133,-17.21,98,100,9.44,overcast clouds
492,Tuy Hoa,VN,13.0833,109.3,73.4,93,86,4.76,overcast clouds
493,Angoram,PG,-4.0625,144.0661,74.71,98,100,1.61,overcast clouds
494,Mount Gambier,AU,-37.8333,140.7667,64.31,77,75,12.66,broken clouds
495,Shingu,JP,33.7333,135.9833,45.91,85,100,6.4,overcast clouds
496,Phan Thiet,VN,10.9333,108.1,74.64,84,93,6.55,overcast clouds
497,Isiro,CD,2.7739,27.616,71.46,48,60,2.98,broken clouds
498,Tsagan Aman,RU,47.5639,46.7218,30.47,73,2,11.83,clear sky
499,Namatanai,PG,-3.6667,152.4333,81.27,76,100,4.7,overcast clouds
500,Ucluelet,CA,48.9329,-125.5528,52.09,62,99,1.99,overcast clouds
501,Gondanglegi,ID,-7.7479,112.0132,74.01,96,100,1.66,light rain
502,Luwingu,ZM,-10.2621,29.9271,61.7,92,94,4.38,overcast clouds
503,High Level,CA,58.5169,-117.136,3.31,72,75,2.3,broken clouds
504,Traverse City,US,44.7631,-85.6206,16.95,46,20,8.05,few clouds
505,Najran,SA,17.4924,44.1277,52.45,44,10,3.11,clear sky
506,Orcopampa,PE,-15.2661,-72.3417,46.72,93,96,8.14,overcast clouds
507,Ileza,RU,61.0533,43.9002,10.58,96,99,6.62,overcast clouds
508,Kutum,SD,14.2,24.6667,61.92,16,5,8.9,clear sky
509,Ilhabela,BR,-23.7781,-45.3581,75.52,87,62,8.48,broken clouds
510,Dullewala,PK,31.8359,71.4362,58.14,42,100,7.09,overcast clouds
511,Whitehorse,CA,60.7161,-135.0538,28.09,69,75,2.3,broken clouds
512,Excelsior Springs,US,39.3392,-94.2261,34.7,31,0,6.91,clear sky
513,Tomatlan,MX,19.9333,-105.25,91.8,28,100,10.16,overcast clouds
514,Mingshui,CN,36.7167,117.5,29.5,83,99,9.04,overcast clouds
515,Lac Du Bonnet,CA,50.2536,-96.0612,0.55,95,100,8.99,light snow
516,Poso,ID,-1.3959,120.7524,76.37,82,100,3.62,overcast clouds
517,Mirabad,AF,30.4362,61.8383,50.9,52,88,16.22,overcast clouds
518,Golynki,RU,54.8696,31.3861,22.75,85,69,12.12,broken clouds
519,Ranong,TH,9.9658,98.6348,76.89,89,96,3.27,overcast clouds
520,Bud,US,39.447,-86.1758,23.7,77,100,10.65,light snow
521,Palaia Fokaia,GR,37.72,23.9463,49.96,69,50,14.27,scattered clouds
522,Channel-Port Aux Basques,CA,47.5702,-59.1367,21.78,70,100,11.9,overcast clouds
523,Mlonggo,ID,-6.5333,110.7,75.09,90,100,5.95,overcast clouds
524,Alekseyevsk,RU,57.8406,108.3492,-30.84,100,69,1.12,broken clouds
525,Suleja,NG,9.1758,7.1808,81.9,14,76,5.64,broken clouds
526,Dalvik,IS,65.9702,-18.5286,-7.67,56,87,9.98,overcast clouds
527,Aktau,KZ,43.65,51.2,28.98,66,49,12.1,scattered clouds
528,Tilichiki,RU,60.4667,166.1,-18.33,93,7,9.55,clear sky
529,Kangaatsiaq,GL,68.3065,-53.4641,-5.76,91,89,33.35,overcast clouds
530,Tete,MZ,-16.1564,33.5867,78.89,83,20,5.01,few clouds
531,Kuala Terengganu,MY,5.3302,103.1408,76.95,94,40,1.14,scattered clouds
532,Ambunti,PG,-4.2365,142.8448,73.99,99,100,0.04,overcast clouds
533,Acarau,BR,-2.8856,-40.12,79.93,79,10,15.48,clear sky
534,Deniliquin,AU,-35.5333,144.9667,78.01,30,19,12.68,few clouds
535,Menongue,AO,-14.6585,17.691,62.69,93,97,2.62,overcast clouds
536,Karatuzskoye,RU,53.6072,92.8667,-20.06,100,73,1.86,broken clouds
537,Floro,NO,61.5996,5.0328,39.16,93,75,10.36,light intensity drizzle
538,Sibolga,ID,1.7427,98.7792,75.09,89,81,3.51,broken clouds
539,Arman,RU,59.7,150.1667,-10.12,79,35,9.71,scattered clouds
540,Gornopravdinsk,RU,60.05,69.9,4.82,96,100,3.85,overcast clouds
541,Korem,ET,12.5058,39.5228,51.91,88,86,2.95,overcast clouds
542,San Ramon,US,37.7799,-121.978,78.98,43,0,10.36,clear sky
543,Hongjiang,CN,27.11,109.9956,42.46,90,99,2.39,overcast clouds
544,Ejido,VE,8.5514,-71.2375,73.42,79,97,2.66,overcast clouds
545,Fort Saint James,CA,54.4333,-124.25,35.76,89,100,2.1,overcast clouds
546,Vao,NC,-22.6667,167.4833,79.74,84,100,8.66,overcast clouds
547,Brigantine,US,39.4101,-74.3646,34.32,93,100,6.91,snow
548,Port Lincoln,AU,-34.7333,135.8667,66.97,82,96,10.09,overcast clouds
549,Egvekinot,RU,66.3167,-179.1667,-18.44,92,75,6.8,broken clouds
550,Makaha,US,21.4694,-158.2175,79.99,64,0,10.36,clear sky
551,Kendari,ID,-3.945,122.4989,74.08,93,68,3.0,broken clouds
552,Dudinka,RU,69.4058,86.1778,-15.27,89,12,6.91,few clouds
553,Zhigansk,RU,66.7697,123.3711,-37.1,100,55,1.68,broken clouds
554,Kampene,CD,-3.6,26.6667,68.41,99,100,3.06,light rain
555,Verkh-Usugli,RU,52.7,115.1667,-22.38,98,45,3.04,scattered clouds
556,Manali,IN,13.1667,80.2667,79.07,80,7,6.91,clear sky
557,Makakilo City,US,21.3469,-158.0858,78.62,56,0,10.36,clear sky
558,Kidal,ML,18.4411,1.4078,70.5,12,59,9.42,broken clouds
559,Chimore,BO,-16.9833,-65.1333,78.48,84,61,1.05,broken clouds
560,Auki,SB,-8.7676,160.7034,77.25,89,100,4.76,overcast clouds
561,Nantucket,US,41.2835,-70.0995,35.96,99,100,15.95,light snow
562,Ayan,RU,56.45,138.1667,-9.56,83,5,6.67,clear sky
563,Summerland,CA,49.5998,-119.6691,41.54,52,20,11.5,few clouds
564,Samarai,PG,-10.6167,150.6667,81.61,72,34,5.88,scattered clouds
565,Sisimiut,GL,66.9395,-53.6735,2.07,95,100,26.8,overcast clouds
566,Rio Gallegos,AR,-51.6226,-69.2181,55.45,24,0,44.87,clear sky
567,Southampton,GB,50.904,-1.4043,50.0,96,75,10.36,moderate rain
568,Presidencia Roque Saenz Pena,AR,-26.7852,-60.4388,85.37,28,0,3.78,clear sky
569,Solnechnyy,RU,50.7214,136.6319,6.35,96,99,4.56,overcast clouds
570,Verkhnyaya Inta,RU,65.9811,60.3094,3.69,84,98,5.84,overcast clouds
571,Grand Forks,US,47.9417,-97.4337,1.33,78,100,19.57,overcast clouds
572,Prince Albert,CA,53.2001,-105.7677,17.55,62,20,16.11,few clouds
573,Road Town,VG,18.4167,-64.6167,77.09,100,40,10.36,scattered clouds
574,Marawi,PH,7.9986,124.2928,62.65,90,100,2.91,overcast clouds
575,Abeche,TD,13.8292,20.8324,74.05,10,100,12.59,overcast clouds
576,Samana,DO,19.2056,-69.3369,84.42,79,20,9.22,few clouds
577,Anklam,DE,53.8564,13.6897,37.06,80,100,14.05,overcast clouds
578,Porbandar,IN,21.6422,69.6093,66.83,67,0,8.81,clear sky
579,Kedrovyy,RU,56.1667,91.8167,-19.14,99,35,4.7,scattered clouds
580,Warrnambool,AU,-38.3833,142.4833,65.8,81,33,7.05,scattered clouds
581,Topolobampo,MX,25.6,-109.05,86.05,33,90,14.0,overcast clouds
582,Avdon,RU,54.6667,55.7167,16.92,93,100,6.71,overcast clouds
583,Khani,GE,41.9563,42.9566,31.57,84,86,6.73,overcast clouds
584,Huancabamba,PE,-5.2386,-79.4506,61.7,96,100,3.22,moderate rain
585,Tlaxco,MX,19.6167,-98.1167,48.42,70,80,8.08,broken clouds
586,Dulovo,BG,43.8167,27.15,35.22,94,91,4.92,overcast clouds
587,Mendi,PG,-6.1761,143.6513,57.67,97,100,0.47,overcast clouds
588,Kamiiso,JP,41.8167,140.65,17.98,93,40,6.91,scattered clouds
589,Terrace,CA,54.5163,-128.6035,39.11,81,100,6.91,light rain
590,Okato,NZ,-39.2,173.8833,64.9,68,50,12.01,scattered clouds
591,Kishorganj,BD,24.4333,90.7667,57.04,69,0,4.76,clear sky
592,Stonehaven,GB,56.9637,-2.2118,42.53,98,100,11.01,light rain
593,Astoria,US,46.1879,-123.8313,63.09,80,0,11.5,clear sky
594,Komsomolsk-Na-Amure,RU,50.552,137.0152,9.95,91,99,8.93,overcast clouds
595,Tucurui,BR,-3.7661,-49.6725,72.09,97,100,2.26,overcast clouds
596,Siniscola,IT,40.5719,9.6922,42.35,85,4,4.56,clear sky
597,Hobyo,SO,5.3505,48.5268,77.9,72,89,16.24,overcast clouds
598,Koumac,NC,-20.5667,164.2833,80.56,77,98,3.8,overcast clouds
599,Rupert,US,42.6191,-113.6772,33.66,87,5,4.47,clear sky
600,Pasaco,GT,13.9772,-90.2064,88.18,52,73,4.34,broken clouds
601,Hong Gai,VN,20.956,107.0946,57.11,84,100,2.8,overcast clouds
602,Otane,NZ,-39.8833,176.6333,59.02,69,71,9.08,broken clouds
603,Arruda Dos Vinhos,PT,38.9841,-9.0775,56.01,93,45,8.16,scattered clouds
604,Namibe,AO,-15.1961,12.1522,75.18,80,100,1.01,overcast clouds
605,Minturno,IT,41.2576,13.7237,54.63,87,91,3.22,overcast clouds
606,Sorong,ID,-0.8833,131.25,76.75,90,100,6.73,overcast clouds
607,Carutapera,BR,-1.195,-46.02,76.59,92,100,6.04,light rain
608,Lijesnica,BA,44.4942,18.0742,27.84,85,7,3.96,clear sky
609,Pringsewu,ID,-5.3582,104.9744,73.99,92,100,0.25,overcast clouds
610,Suoyarvi,RU,62.0833,32.35,29.73,96,100,12.44,light snow
611,College,US,64.8569,-147.8028,15.21,82,100,0.0,light snow
612,Bretten,DE,49.0392,8.7028,45.09,67,21,5.84,few clouds
613,Zyryanovsk,KZ,49.7386,84.2719,15.33,97,100,1.74,light snow
614,Voyvozh,RU,62.892,54.9635,-0.35,100,96,3.11,overcast clouds
615,Fort Nelson,CA,58.8053,-122.7002,6.39,66,75,2.3,broken clouds
616,Larreynaga,NI,12.6769,-86.5719,93.0,25,13,14.23,few clouds
617,Wakkanai,JP,45.4094,141.6739,26.87,82,98,21.45,overcast clouds
618,Gulmarg,IN,34.049,74.3921,28.98,69,100,0.6,overcast clouds
619,Lorengau,PG,-2.0226,147.2712,81.57,78,100,2.89,overcast clouds
620,Florence,IT,43.7667,11.25,49.68,83,75,5.75,broken clouds
621,Dali,CN,25.7,100.1833,38.34,62,0,2.95,clear sky
622,Isla Vista,US,34.4133,-119.861,88.68,23,0,3.0,clear sky
623,Vytegra,RU,61.0064,36.4481,28.74,94,100,11.18,light snow
624,Abu Samrah,SY,35.3029,37.1841,48.4,69,0,7.07,clear sky
625,Bosaso,SO,11.2842,49.1816,72.73,73,36,2.1,scattered clouds
626,Jizan,SA,17.3333,42.6667,79.74,76,52,6.33,broken clouds
627,Sinnamary,GF,5.3833,-52.95,76.77,89,64,10.13,broken clouds
628,Lubao,PH,14.9167,120.55,78.15,90,89,4.03,overcast clouds
629,Gayeri,BF,12.6497,0.4931,78.33,11,4,9.17,clear sky
630,Hofn,IS,64.2539,-15.2082,21.76,62,18,10.67,few clouds
631,Reshetylivka,UA,49.565,34.0782,25.65,82,14,5.57,few clouds
632,Camana,PE,-16.6228,-72.7111,73.78,74,14,8.01,few clouds
633,Edremit,TR,39.5961,27.0244,43.32,84,83,7.05,broken clouds
634,Nkhotakota,MW,-12.9274,34.2961,71.42,89,100,4.68,light rain
635,Marzuq,YE,14.4,46.4667,57.74,47,3,3.44,clear sky
636,The Valley,AI,18.217,-63.0578,76.86,83,75,19.57,broken clouds
637,Whittlesea,ZA,-32.1759,26.8244,64.51,92,81,5.99,light rain
638,Methoni,GR,36.8197,21.7049,53.22,75,11,3.49,few clouds
639,Phonhong,LA,18.5007,102.4166,68.74,84,40,0.27,light rain
640,Carballo,ES,43.213,-8.691,51.01,90,37,8.5,scattered clouds
641,Barroquinha,BR,-3.0189,-41.1361,80.38,81,34,10.16,scattered clouds
642,Tautira,PF,-17.7333,-149.15,87.82,76,82,16.55,light rain
643,Thinadhoo,MV,0.5333,72.9333,81.54,76,70,8.21,broken clouds
644,Kang,BW,-23.6752,22.7876,74.39,35,23,6.58,few clouds
645,Srandakan,ID,-7.9386,110.2506,60.73,93,100,5.91,moderate rain
646,Tacuarembo,UY,-31.7333,-55.9833,74.48,28,0,9.55,clear sky
647,Faya,SA,18.3851,42.4509,54.12,45,70,2.75,broken clouds
648,Sibiti,CG,-3.6819,13.3499,70.03,98,100,2.35,light rain
649,Isparta,TR,38.0,31.0,27.36,88,99,2.35,overcast clouds
650,Thomaston,US,32.8882,-84.3266,52.54,24,0,13.8,clear sky
651,Arona,ES,28.0996,-16.681,59.31,77,20,6.91,few clouds
652,Fenoarivo,MG,-18.933,47.4354,66.27,88,75,5.75,broken clouds
653,Kieta,PG,-6.2167,155.6333,80.76,80,75,1.88,broken clouds
654,Ankpa,NG,7.3706,7.6253,79.61,14,78,0.31,broken clouds
655,Kiama,AU,-34.6833,150.8667,72.57,76,100,3.0,overcast clouds
656,Shache,CN,38.4167,77.2406,33.71,49,7,4.83,clear sky
657,Shahrud,IR,36.4182,54.9763,34.79,68,6,8.66,clear sky
658,Hede,CN,33.7681,120.2517,35.4,78,7,4.41,clear sky
659,Byron Bay,AU,-28.65,153.6167,72.88,84,74,5.41,broken clouds
660,Preston,GB,53.7667,-2.7167,46.74,93,100,10.56,overcast clouds
661,Westport,US,41.1415,-73.3579,31.19,71,100,9.22,overcast clouds
662,Zabol,AF,32.25,67.25,41.23,49,100,2.82,overcast clouds
663,Durban,ZA,-29.8579,31.0292,80.02,77,100,8.01,overcast clouds
664,Mbala,ZM,-8.8402,31.3659,60.69,89,100,2.93,overcast clouds
665,Dalbandin,PK,28.8947,64.4101,54.66,48,59,8.08,broken clouds
666,Kodinsk,RU,58.6881,99.1844,-21.5,100,55,3.15,broken clouds
667,Ankazoabo,MG,-22.2833,44.5167,75.38,69,4,2.98,clear sky
668,Holme,DK,56.1138,10.1725,40.57,77,100,16.75,overcast clouds
669,Coos Bay,US,43.3665,-124.2179,62.31,87,0,12.66,clear sky
670,Kingori,TZ,-3.2833,36.9833,75.58,61,75,17.27,broken clouds
671,Khargapur,IN,24.823,79.144,55.15,42,0,4.29,clear sky
672,Visnes,NO,59.3556,5.2242,43.57,93,75,12.66,moderate rain
673,Paracuru,BR,-3.41,-39.0306,83.1,85,27,8.23,scattered clouds
674,Fuerte Olimpo,PY,-21.0415,-57.8738,94.93,29,88,5.66,overcast clouds
675,Kununurra,AU,-15.7667,128.7333,75.18,88,4,3.44,clear sky
676,Pangnirtung,CA,66.1451,-65.7125,-25.6,68,40,6.91,scattered clouds
677,Quibdo,CO,5.6947,-76.6611,79.14,89,75,5.75,broken clouds
678,Nayoro,JP,44.3506,142.4578,11.08,98,91,3.42,overcast clouds
679,Cleethorpes,GB,53.5605,-0.0323,49.12,93,100,18.68,light rain
680,Tongliao,CN,43.6125,122.2653,1.42,94,100,10.29,overcast clouds
681,Viedma,AR,-40.8135,-62.9967,90.01,15,0,6.69,clear sky
682,Erenhot,CN,43.6475,111.9767,-7.8,94,11,3.67,few clouds
683,Cavalcante,BR,-13.7975,-47.4583,67.98,94,100,1.59,overcast clouds
684,Zhanaozen,KZ,43.3,52.8,28.17,83,8,9.62,clear sky
685,Cranbrook,CA,49.4999,-115.7688,40.06,48,40,3.44,scattered clouds
686,Syracuse,IT,37.0881,15.2792,54.9,79,39,1.99,scattered clouds
687,Birao,CF,10.2849,22.7882,71.85,11,44,7.09,scattered clouds
688,Kuusamo,FI,65.9667,29.1833,23.04,93,100,9.22,overcast clouds
689,Newtownards,GB,54.5924,-5.6909,42.75,89,100,6.91,overcast clouds
690,Pochutla,MX,15.7432,-96.4661,88.83,50,70,7.78,broken clouds
691,Labuhan,ID,-6.8844,112.2051,75.7,91,100,5.35,overcast clouds
692,Vangazi,LV,57.0936,24.5486,35.38,82,99,11.7,overcast clouds
693,Menemen,TR,38.6075,27.0694,45.77,85,3,5.61,clear sky
694,Nurota,UZ,40.5614,65.6886,30.29,62,71,8.59,broken clouds
695,San Buenaventura,MX,27.0833,-101.5333,65.48,25,100,6.11,overcast clouds
696,Novyye Burasy,RU,52.1324,46.0714,22.95,96,69,7.29,broken clouds
697,Chitral,PK,35.8462,71.7858,36.61,86,100,4.59,overcast clouds
698,Kasempa,ZM,-13.4584,25.8338,62.22,91,61,1.45,broken clouds
